stop_id,stop_code,stop_name,stop_lat,stop_lon,zone_id,alias,stop_area,stop_desc,lest_x,lest_y,zone_name
93449,11312-1,Kitseküla,59.42038978,24.73866103,93449,Kitseküla,Kesklinn,,6587176.5,541936.06,Harju1
34125,06412-1,Liiva,59.38748229,24.72299034,34125,,Nõmme,,6583501.0,541085.93,Harju1
10137,21106-1,Tallinn,59.44049842,24.73695437,10137,Tallinn; Balti Jaam,Põhja-Tallinn,,6589415.5,541814.56,Harju1
10138,21107-1,Tallinn,59.44021865,24.73722042,10138,Tallinn; Balti Jaam,Põhja-Tallinn,,6589384.5,541830.0,Harju1
10409,07410-1,Tondi,59.41093955,24.73341717,10409,Tondi,Kristiine,,6586120.5,541649.87,Harju1
10410,07411-1,Tondi,59.41110870000001,24.73367063,10410,Tondi,Kristiine,,6586139.5,541664.06,Harju1
10413,11205-1,Lilleküla,59.42565498,24.72732462,10413,Lilleküla,Kristiine,,6587756.0,541286.12,Harju1
10414,11206-1,Lilleküla,59.42460795,24.72836045,10414,Lilleküla,Kristiine,,6587640.0,541346.18,Harju1
10415,06805-1,Järve,59.40062479,24.72456648,10415,,Kristiine,,6584966.0,541159.68,Harju1
10416,06804-1,Järve,59.40120462,24.72523124,10416,,Kristiine,,6585031.0,541196.75,Harju1
10729,06306-1,Rahumäe,59.3889736,24.70458968,10729,,Nõmme,,6583656.0,540038.56,Harju1
10730,06307-1,Rahumäe,59.38854577,24.7023382,10730,,Nõmme,,6583607.0,539911.12,Harju1
10732,05408-1,Nõmme,59.386339,24.68760927,10732,,Nõmme,,6583352.5,539076.68,Harju1
10733,05409-1,Nõmme,59.38604496,24.68633089,10733,,Nõmme,,6583319.0,539004.37,Harju1
10734,04804-1,Hiiu,59.38294699,24.66997995,10734,Hiiu,Nõmme,,6582964.5,538078.62,Harju1
10735,04805-1,Hiiu,59.38321436,24.67123886,10735,Hiiu,Nõmme,,6582995.0,538149.87,Harju1
10738,05008-1,Kivimäe,59.3776053,24.65762553,10738,,Nõmme,,6582362.5,537382.31,Harju1
10739,05009-1,Kivimäe,59.37676017,24.65608868,10739,,Nõmme,,6582267.5,537295.87,Harju1
10741,04105-1,Pääsküla,59.36935753,24.64086714,10741,Pääsküla,Nõmme,,6581434.5,536438.5,Harju1
10742,04106-1,Pääsküla,59.36961302,24.64185906,10742,Pääsküla,Nõmme,,6581463.5,536494.62,Harju1
10744,04408-1,Laagri,59.354327100000006,24.62756319,10744,Laagri,Nõmme,,6579753.0,535697.75,Harju1
10745,04409-1,Laagri,59.35499895,24.62785899,10745,Laagri,Nõmme,,6579828.0,535713.87,Harju1
10746,23424-1,Saue,59.32481481,24.54746466,10746,Saue,Saue linn,,6576425.5,531168.43,Harju2
10747,23425-1,Saue,59.3250695,24.54881576,10747,Saue,Saue linn,,6576454.5,531245.12,Harju2
10750,23363-1,Valingu,59.31157586,24.48537142,10750,Valingu,Saue vald,,6574923.5,527644.06,Harju2
10751,23364-1,Valingu,59.31140311,24.48353415,10751,Valingu,Saue vald,,6574903.5,527539.56,Harju2
10757,21828-1,Keila,59.30609644,24.41724942,10757,Keila,Keila linn,,6574287.0,523768.06,Harju3
10763,21783-1,Niitvälja,59.31407993,24.32034193,10763,Niitvälja,Keila vald,,6575146.0,518243.65,Harju3
10764,21784-1,Niitvälja,59.31397119,24.32076124,10764,Niitvälja,Keila vald,,6575134.0,518267.59,Harju3
10767,21776-1,Klooga,59.32046011,24.25826394,10767,Klooga,Keila vald,,6575841.5,514705.56,Harju3
10768,21777-1,Klooga,59.32031058,24.25898342,10768,Klooga,Keila vald,,6575825.0,514746.59,Harju3
10777,21778-1,Klooga aedlinn,59.32446899999999,24.21826805,10777,Klooga-aedlinn,Keila vald,,6576280.0,512426.75,Harju3
10778,21779-1,Klooga aedlinn,59.32462779,24.21723989,10778,Klooga-aedlinn,Keila vald,,6576297.5,512368.15,Harju3
10781,21786-1,Põllküla,59.32906813,24.17416631,10781,Põllküla,Keila vald,,6576785.0,509914.56,Harju4
10782,21785-1,Põllküla,59.32898713,24.17432894,10782,Põllküla,Keila vald,,6576776.0,509923.84,Harju4
10785,22907-1,Laoküla,59.33322611,24.13445159,10785,Laoküla,Keila vald,,6577243.0,507652.84,Harju4
10786,22908-1,Laoküla,59.33316767,24.13453701,10786,Laoküla,Keila vald,,6577236.5,507657.71,Harju4
10789,22909-1,Paldiski,59.34412004,24.06091842,10789,Paldiski,Paldiski linn,,6578450.5,503466.31,Harju4
10790,22910-1,Paldiski,59.34393143,24.06114106,10790,Paldiski,Paldiski linn,,6578429.5,503479.0,Harju4
10832,21310-1,Aegviidu,59.28542591,25.61281429,10832,Aegviidu,Aegviidu vald,,6573015.5,591918.93,Harju4
10833,21309-1,Aegviidu,59.28518473,25.61307716,10833,Aegviidu,Aegviidu vald,,6572989.0,591934.56,Harju4
10834,37102-1,Mustjõe,59.29823549,25.465111800000003,10834,,Anija vald,,6574249.0,583471.18,Harju4
10835,37101-1,Mustjõe,59.29835104,25.46441344,10835,,Anija vald,,6574261.0,583431.12,Harju4
10844,37905-1,Kehra,59.33722237,25.33405909,10844,Kehra,Anija vald,,6578435.5,575919.43,Harju4
10845,37904-1,Kehra,59.33676177,25.33520764,10845,Kehra,Anija vald,,6578385.5,575985.81,Harju4
10849,38202-1,Parila,59.35681435,25.26728458,10849,,Anija vald,,6580544.0,572078.62,Harju3
10850,38201-1,Parila,59.35697777,25.26616524,10850,,Anija vald,,6580561.0,572014.62,Harju3
10853,41004-1,Raasiku,59.36574533,25.17377321,10853,Raasiku,Raasiku vald,,6581442.0,566743.18,Harju3
10854,41003-1,Raasiku,59.36557396,25.1748666,10854,Raasiku,Raasiku vald,,6581424.0,566805.68,Harju3
10857,41105-1,Aruküla,59.3720346,25.079487699999998,10857,Aruküla,Raasiku vald,,6582052.5,561371.12,Harju2
10858,41104-1,Aruküla,59.37208321,25.0773926,10858,Aruküla,Raasiku vald,,6582056.0,561251.93,Harju2
10861,41314-1,Kulli,59.38354752,25.00308822,10861,Kulli,Raasiku vald,,6583267.5,557008.81,Harju2
10862,41313-1,Kulli,59.38349029,25.00294027,10862,Kulli,Raasiku vald,,6583261.0,557000.5,Harju2
10865,43157-1,Lagedi,59.39975161,24.93169943,10865,Lagedi,Rae vald,,6585014.0,552926.75,Harju2
10866,43158-1,Lagedi,59.39930748,24.93229799,10866,Lagedi,Rae vald,,6584965.0,552961.43,Harju2
10872,13709-1,Vesse,59.42306429,24.81916097,10872,Vesse,Lasnamäe,,6587527.5,546502.43,Harju1
10873,13710-1,Vesse,59.42300162,24.81913415,10873,Vesse,Lasnamäe,,6587520.5,546501.0,Harju1
10877,13411-1,Ülemiste,59.42338249,24.79508362,10877,Ülemiste,Lasnamäe,,6587546.5,545135.25,Harju1
10878,13412-1,Ülemiste,59.42329729,24.79581271,10878,Ülemiste,Lasnamäe,,6587537.5,545176.75,Harju1
12294,23509-1,Vasalemma,59.23844206,24.29894238,12294,Vasalemma,Vasalemma vald,,6566714.5,517062.5,Harju4
12295,23510-1,Vasalemma,59.23863413,24.29935469,12295,Vasalemma,Vasalemma vald,,6566736.0,517085.93,Harju4
12297,21955-1,Kibuna,59.2143868,24.29360391,12297,Kibuna,Kernu vald,,6564033.5,516769.53,Harju4
12299,21956-1,Kibuna,59.21466995,24.29343562,12299,Kibuna,Kernu vald,,6564065.0,516759.78,Harju4
12301,21957-1,Laitse,59.19479357,24.31514725,12301,Laitse,Kernu vald,,6561856.5,518010.25,Harju4
12302,21958-1,Laitse,59.19515767,24.31492857,12302,Laitse,Kernu vald,,6561897.0,517997.56,Harju4
12303,21953-1,Jaanika,59.15792795,24.31737895,12303,,Nissi vald,,6557750.5,518157.21,Harju4
12304,21954-1,Jaanika,59.15798146,24.31752475,12304,,Nissi vald,,6557756.5,518165.53,Harju4
12305,22744-1,Riisipere,59.11945963,24.3121061,12305,Riisipere,Nissi vald,,6553464.0,517875.5,Harju4
12307,21781-1,Kulna,59.28631684,24.3543932,12307,Kulna,Keila vald,,6572063.0,520199.21,Harju3
12308,21782-1,Kulna,59.28625389,24.35443532,12308,Kulna,Keila vald,,6572056.0,520201.65,Harju3
12667,23281-1,Kasemetsa,59.27356241,24.67681218,12667,,Saku vald,,6570783.5,538589.87,Harju2
12668,23282-1,Kasemetsa,59.27342812,24.67674047,12668,,Saku vald,,6570768.5,538585.93,Harju2
12679,23283-1,Kiisa,59.23877922,24.68557232,12679,Kiisa,Saku vald,,6566914.0,539128.93,Harju3
12680,23284-1,Kiisa,59.2390162,24.68574788,12680,Kiisa,Saku vald,,6566940.5,539138.68,Harju3
34252,06413-1,Liiva,59.38800908,24.72350852,34252,,Nõmme,,6583560.0,541114.75,Harju1
12939,23289-1,Saku,59.30111433,24.67663499,12939,Saku,Saku vald,,6573852.5,538548.81,Harju2
12940,23291-1,Roobuka,59.22144993,24.69548811,12940,,Saku vald,,6564989.5,539714.87,Harju3
12941,23292-1,Roobuka,59.22148942,24.69565966,12941,,Saku vald,,6564994.0,539724.62,Harju3
12942,23290-1,Saku,59.30140881,24.67697541,12942,Saku,Saku vald,,6573885.5,538567.87,Harju2
34247,5990002-1,Jäneda,59.25494759,25.70789764,34247,Jäneda,Tapa vald,,6569755.5,597423.31,
34045,5990017-1,Rakvere,59.35753968,26.36322567,34045,Rakvere,Rakvere linn,,6582311.5,634389.18,
34112,7890025-1,Tartu,58.37393011,26.70618453,34112,Tartu,Tartu linn,,6473576.0,658301.25,TartuLinn
10756,21829-1,Keila,59.30619714,24.41663347,10756,Keila,Keila linn,,6574298.0,523732.9,Harju3
34041,4490009-1,Kohtla-Nõmme,59.36182298,27.18901733,34041,,Kohtla-Nõmme alev,,6584731.5,681295.87,
34237,4490017-1,Püssi,59.35848887,27.04868226,34237,Püssi,Lüganuse vald,,6583989.5,673340.31,
34236,4490010-1,Kohtla-Nõmme,59.36192732,27.18897644,34236,,Kohtla-Nõmme alev,,6584743.0,681293.0,
34082,8490005-1,Viljandi,58.35788637,25.57409271,34082,Viljandi,Viljandi linn,,6469676.5,592136.75,ViljandiLinn
34124,07511-1,Tallinn-Väike,59.4128799,24.74595367,34124,,Kesklinn,,6586344.5,542359.37,Harju1
34000,23203-1,Männiku,59.33890625,24.70174137,34000,,Saku vald,,6578077.0,539935.06,Harju2
34001,7090007-1,Kohila,59.17103305,24.74345552,34001,Kohila,Kohila alev,,6559403.0,542516.12,Harju4
34002,5990009-1,Lehtse,59.25442846,25.82461287,34002,Lehtse,Lehtse alevik,,6569873.0,604081.06,
34003,5990015-1,Rakke,58.99027305,26.24278908,34003,Rakke,Rakke alevik,,6541187.5,628910.62,
34004,21312-1,Nelijärve,59.27043014,25.65282122,34004,,Aegviidu vald,,6571401.0,594239.75,Harju4
34005,5990007-1,Kiltsi,59.08783822,26.17670932,34005,,Kiltsi alevik,,6551924.5,624761.25,
34006,5990005-1,Kadrina,59.33817823,26.14682767,34006,Kadrina,Kadrina alevik,,6579742.0,622156.75,
34007,4490020-1,Sonda,59.34948311,26.842361,34007,,Sonda alevik,,6582472.0,661659.18,
34009,5990001-1,Jäneda,59.25485902,25.70711514,34009,Jäneda,Tapa vald,,6569744.5,597378.93,
34010,4490022-1,Vaivara,59.37292024,27.76812294,34010,,Vaivara vald,,6587673.0,714116.68,
34013,7090003-1,Hagudi,59.06535043,24.81344374,34013,,Hagudi alevik,,6547678.0,546661.12,
34014,7090005-1,Keava,58.94360586,24.89798485,34014,,Keava alevik,,6534180.0,551691.87,
34015,7090011-1,Käru,58.83412507,25.14385174,34015,Käru,Käru alevik,,6522202.5,566051.75,
34016,5190003-1,Kärevere,58.72528504,25.51819669,34016,,Türi vald,,6510511.5,587939.43,tartu1
34020,7090001-1,Eidapere,58.75720855,24.93914164,34020,,Eidapere alevik,,6513452.5,554351.56,
34022,5990003-1,Kabala,59.34494804,26.67490752,34022,,Rägavere vald,,6581575.5,652160.62,
34023,6790006-1,Tootsi,58.56411315,24.81097177,34023,Tootsi Pärnumaa,Tori vald,,6491850.0,547194.31,
34025,7090009-1,Koogiste,58.79332867,24.998649800000003,34025,,Kehtna vald,,6517525.0,557735.37,
34028,6790010-1,Viluvere,58.64216105,24.86554437,34028,,Vändra vald,,6500582.0,550257.81,
34030,7090013-1,Lelle,58.86793105,25.00656706,34030,Lelle,Lelle alevik,,6525840.5,558068.37,
34032,6790008-1,Tori,58.50947661,24.79515754,34032,,Tori vald,,6485754.0,546346.18,
34035,5190005-1,Ollepa,58.66594229,25.54090274,34035,,Türi vald,,6503933.5,589406.25,
34038,7090019-1,Vilivere,59.201187,24.71314422,34038,,Kohila vald,,6562743.0,540747.06,Harju4
34040,6790001-1,Pärnu kaubajaam,58.39525061,24.58773326,34040,,Pärnu linn,,6472907.5,534368.18,"PärnuLinn,PärnuMVLL"
34042,4490014-1,Oru,59.37542997,27.58307811,34042,Oru,Oru linnaosa,,6587376.0,703597.18,
34044,4490005-1,Jõhvi,59.3558098,27.40118946,34044,Jõhvi,Jõhvi linn,,6584655.0,693381.81,
34046,5990021-1,Tapa,59.26549438,25.96116255,34046,Tapa,Tapa linn,,6571325.0,611832.06,
34047,5990019-1,Tamsalu,59.15981552,26.11186461,34047,Tamsalu,Tamsalu linn,,6559819.5,620793.43,
34048,4490012-1,Narva,59.36886922,28.1980066,34048,Narva,Narva linn,,6588673.0,738542.0,
34049,4490007-1,Kiviõli,59.35287336,26.95613576,34049,Kiviõli,Kiviõli linn,,6583129.0,668109.37,
34050,5190009-1,Türi,58.80506733,25.42214075,34050,Türi,Türi linn,,6519274.0,582188.0,tartu1
34051,7090017-1,Rapla,58.99412908,24.83228549,34051,Rapla,Rapla linn,,6539758.5,547840.31,
34052,6590031-1,Veriora,58.00612541,27.35358596,34052,,Veriora alevik,,6434372.5,698190.43,
34053,6590027-1,Valgemetsa,58.148174899999994,26.96750465,34053,,Vastse-Kuuste vald,,6449103.0,674689.93,
34054,6590023-1,Taevaskoja,58.10128419,27.02859632,34054,,Vastse-Kuuste vald,,6444046.5,678519.56,
34056,6590029-1,Vastse-Kuuste,58.1736817,26.93229019,34056,,Vastse-Kuuste alevik,,6451850.0,672494.12,
34057,6590005-1,Kiidjärve,58.128938600000005,26.99401639,34057,,Vastse-Kuuste vald,,6447032.0,676345.18,
34058,6590001-1,Holvandi,58.05489363,27.19534621,34058,,Põlva vald,,6439341.5,688587.37,
34059,6590021-1,Ruusa,58.04245478,27.27344612,34059,Ruusa,Räpina vald,,6438180.0,693260.75,
34061,6590003-1,Ilumetsa,57.96794139,27.4107544,34061,,Veriora vald,,6430295.5,701782.25,
34062,6590013-1,Orava,57.91983804,27.47349526,34062,Orava,Orava vald,,6425135.5,705768.06,
34066,6590019-1,Põlva,58.07003442,27.09119524,34066,Põlva,Põlva linn,,6440738.0,682367.18,
34067,8290017-1,Puka,58.05511827,26.23981844,34067,,Puka alevik,,6437081.5,632217.31,
34075,8290013-1,Palupera,58.12703165,26.32558472,34075,,Palupera vald,,6445258.5,637000.5,
34076,8290005-1,Keeni,57.94706216,26.23922529,34076,,Sangaste vald,,6425052.0,632584.0,
34077,8290023-1,Sangaste,57.86410426,26.18897319,34077,,Tsirguliina alevik,,6415719.0,629911.12,
34079,8290009-1,Mägiste,58.01095837,26.23127811,34079,,Sangaste vald,,6432149.0,631876.93,
34080,8490001-1,Olustvere,58.54533727,25.54657669,34080,,Suure-Jaani vald,,6490511.56,590045.1,
34081,8490003-1,Sürgavere,58.48774483,25.53714525,34081,,Suure-Jaani vald,,6484086.0,589643.06,
34083,8490007-1,Võhma,58.62943282,25.56167698,34083,Võhma,Võhma linn,,6499896.0,590706.06,
34096,7890013-1,Nõo,58.28156307,26.53726336,34096,Nõo,Nõo vald,,6462909.5,648813.93,
34097,7890031-1,Uhti,58.28910397,26.72894406,34097,Uhti,Ülenurme vald,,6464190.0,660016.12,
34098,7890017-1,Rebase,58.23856329,26.80935925,34098,Rebase,Kambja vald,,6458760.5,664964.37,
34099,7890011-1,Kärkna,58.45789658,26.65907336,34099,,Tartu vald,,6482810.5,655176.25,
34101,7890021-1,Ropka,58.31503184,26.629213099999998,34101,,Ülenurme vald,,6466842.0,654058.12,
34103,7890019-1,Reola,58.27162913,26.7714316,34103,Reola; Reola raudteejaam,Haaslava vald,,6462347.5,662586.43,
34104,7890033-1,Vana-Kuuste,58.25502862,26.784122600000003,34104,,Kambja vald,,6460531.0,663407.25,
34105,7890043-1,Ülenurme,58.3100124,26.7214652,34105,,Ülenurme vald,,6466499.0,659483.37,
34106,7890027-1,Tõravere,58.26035733,26.48176819,34106,,Nõo vald,,6460427.5,645647.93,
34111,7890005-1,Elva,58.22522916,26.42254227,34111,Elva,Elva linn,,6456390.5,642314.93,
34113,4490016-1,Püssi,59.35857821,27.04812372,34113,Püssi,Lüganuse vald,,6583998.0,673308.12,
34115,7890015-1,Peedu,58.23718837,26.44874904,34115,,Elva linn,,6457777.5,643805.18,
34117,6590015-1,Koidula,57.83697749,27.57526996,34117,,Värska vald,,6416236.5,712283.18,
34120,8290027-1,Valga,57.77455098,26.05292157,34120,Valga,Valga linn,,6405494.0,622144.56,
34122,7890009-1,Kirsi,58.35750153,26.71539974,34122,,Tartu linn,,6471769.5,658914.06,TartuLinn
34123,7890001-1,Aardla,58.35771232,26.71457291,34123,,Tartu linn,,6471791.0,658864.75,TartuLinn
34128,6790002-1,Pärnu kaubajaam,58.39520917,24.58795809,34128,,Pärnu linn,,6472903.0,534381.37,"PärnuLinn,PärnuMVLL"
34130,6790009-1,Tori,58.50944456,24.79525761,34130,,Tori vald,,6485750.5,546352.06,
34131,6790007-1,Tootsi,58.56410972,24.81080414,34131,Tootsi Pärnumaa,Tori vald,,6491849.5,547184.56,
34132,6790011-1,Viluvere,58.64217968,24.86544365,34132,,Vändra vald,,6500584.0,550251.93,
34134,7090002-1,Eidapere,58.75714104,24.93916466,34134,,Eidapere alevik,,6513445.0,554353.0,
34135,7090010-1,Koogiste,58.79333415,24.99852238,34135,,Kehtna vald,,6517525.5,557728.0,
34136,8490006-1,Viljandi,58.35791005,25.57399338,34136,Viljandi,Viljandi linn,,6469679.0,592130.87,ViljandiLinn
34137,8490004-1,Sürgavere,58.48779601,25.53699636,34137,,Suure-Jaani vald,,6484091.5,589634.25,
34138,8490002-1,Olustvere,58.54549671,25.54671514,34138,,Olustvere alevik,,6490529.5,590052.75,
34139,8490008-1,Võhma,58.62956665,25.56174968,34139,Võhma,Võhma linn,,6499911.0,590709.93,
34140,5190006-1,Ollepa,58.6663882,25.54078773,34140,,Türi vald,,6503983.0,589398.43,
34141,5190004-1,Kärevere,58.72524663,25.51802667,34141,,Türi vald,,6510507.0,587929.68,tartu1
34143,5190010-1,Türi,58.80514437,25.42207575,34143,Türi,Türi linn,,6519282.5,582184.06,tartu1
34145,7090012-1,Käru,58.83417302,25.144014600000002,34145,Käru,Käru alevik,,6522208.0,566061.06,
34146,7090014-1,Lelle,58.86827578,25.00611115,34146,Lelle,Lelle alevik,,6525878.5,558041.5,
34147,7090006-1,Keava,58.943045999999995,24.89844592,34147,,Keava alevik,,6534118.0,551719.25,
34148,7090018-1,Rapla,58.99438612,24.83210464,34148,Rapla,Rapla linn,,6539787.0,547829.56,
34149,7090004-1,Hagudi,59.06567832,24.81269417,34149,,Hagudi alevik,,6547714.0,546617.68,
34151,7090008-1,Kohila,59.17117658,24.74347502,34151,Kohila,Kohila alev,,6559419.0,542517.06,Harju4
34152,7090020-1,Vilivere,59.20141146,24.71305939,34152,,Kohila vald,,6562767.95,540741.95,Harju4
34153,7890002-1,Aardla,58.35786742,26.71488512,34153,,Tartu linn,,6471809.0,658882.31,TartuLinn
34155,7890022-1,Ropka,58.31487635,26.62869246,34155,,Ülenurme vald,,6466823.5,654028.31,
34157,7890014-1,Nõo,58.28159677,26.53692462,34157,Nõo,Nõo vald,,6462912.5,648793.93,
34158,7890028-1,Tõravere,58.26034192,26.48186726,34158,,Nõo vald,,6460426.0,645653.81,
34160,7890016-1,Peedu,58.23722362,26.44855131,34160,,Elva linn,,6457781.0,643793.43,
34161,7890006-1,Elva,58.22564249,26.42301123,34161,Elva,Elva linn,,6456437.5,642340.81,
34163,8290014-1,Palupera,58.1270642,26.32576941,34163,,Palupera vald,,6445262.5,637011.25,
34165,8290018-1,Puka,58.05526326,26.24000128,34165,,Puka alevik,,6437098.0,632227.56,
34166,8290010-1,Mägiste,58.01099675,26.23113982,34166,,Sangaste vald,,6432153.0,631868.62,
34168,8290006-1,Keeni,57.94705924,26.23938984,34168,,Sangaste vald,,6425052.0,632593.75,
34170,8290024-1,Sangaste,57.86410082,26.18917104,34170,,Tsirguliina alevik,,6415719.0,629922.87,
34172,8290028-1,Valga,57.77449139,26.05327017,34172,Valga,Valga linn,,6405488.0,622165.5,
34191,6590016-1,Koidula,57.83691825,27.57529775,34191,,Värska vald,,6416230.0,712285.18,
34193,6590014-1,Orava,57.91980086,27.47337654,34193,Orava,Orava vald,,6425131.0,705761.25,
34194,6590004-1,Ilumetsa,57.96786114,27.410729800000002,34194,,Veriora vald,,6430286.5,701781.25,
34195,6590032-1,Veriora,58.00599855,27.35362375,34195,,Veriora alevik,,6434358.5,698193.37,
34196,6590022-1,Ruusa,58.04240567,27.27343312,34196,Ruusa,Räpina vald,,6438174.5,693260.25,
34197,6590002-1,Holvandi,58.05484169,27.19526736,34197,,Põlva vald,,6439335.5,688583.0,
34198,6590020-1,Põlva,58.07004322,27.09138683,34198,Põlva,Põlva linn,,6440739.5,682378.43,
34199,6590024-1,Taevaskoja,58.10125497,27.02850258,34199,,Vastse-Kuuste vald,,6444043.0,678514.18,
34200,6590006-1,Kiidjärve,58.12890467,26.993930699999996,34200,,Vastse-Kuuste vald,,6447028.0,676340.31,
34201,6590028-1,Valgemetsa,58.14813141,26.96744258,34201,,Vastse-Kuuste vald,,6449098.0,674686.5,
34202,6590030-1,Vastse-Kuuste,58.17358789,26.93226648,34202,,Vastse-Kuuste alevik,,6451839.5,672493.18,
34204,7890018-1,Rebase,58.23835124,26.8095778,34204,Rebase,Kambja vald,,6458737.44,664978.19,
34205,7890034-1,Vana-Kuuste,58.25499903,26.78403716,34205,,Kambja vald,,6460527.5,663402.37,
34206,7890020-1,Reola,58.27160941,26.77130534,34206,Reola; Reola raudteejaam,Haaslava vald,,6462345.0,662579.12,
34207,7890032-1,Uhti,58.28912821,26.72907071,34207,Uhti,Ülenurme vald,,6464193.0,660023.43,
34208,7890044-1,Ülenurme,58.30999658,26.72136474,34208,,Ülenurme vald,,6466497.0,659477.56,
34209,7890010-1,Kirsi,58.35737895,26.71524818,34209,,Tartu linn,,6471755.5,658905.75,TartuLinn
34210,7890026-1,Tartu,58.37379194,26.70613222,34210,Tartu,Tartu linn,,6473560.5,658298.81,TartuLinn
34214,7890012-1,Kärkna,58.45791692,26.65917563,34214,,Tartu vald,,6482813.0,655182.12,
34224,5990016-1,Rakke,58.99041051,26.24289154,34224,Rakke,Rakke alevik,,6541203.0,628916.0,
34225,5990008-1,Kiltsi,59.08777784,26.17656043,34225,,Kiltsi alevik,,6551917.5,624752.93,
34226,5990020-1,Tamsalu,59.16005481,26.11178528,34226,Tamsalu,Tamsalu linn,,6559846.0,620788.06,
34228,5990022-1,Tapa,59.26555886,25.9604547,34228,Tapa,Tapa linn,,6571331.0,611791.5,
34229,4490013-1,Narva,59.36877105,28.1981234,34229,Narva,Narva linn,,6588662.5,738549.31,
34233,4490023-1,Vaivara,59.37299119,27.76815718,34233,,Vaivara vald,,6587681.0,714118.18,
34234,4490015-1,Oru,59.37548895,27.58305786,34234,Oru,Oru linnaosa,,6587382.5,703595.68,
34235,4490006-1,Jõhvi,59.35575352,27.40110686,34235,Jõhvi,Jõhvi linn,,6584648.5,693377.43,
34238,4490008-1,Kiviõli,59.35292534,26.95582242,34238,Kiviõli,Kiviõli linn,,6583134.0,668091.31,
34239,4490021-1,Sonda,59.34941524,26.84196832,34239,,Sonda alevik,,6582463.5,661637.18,
34240,5990004-1,Kabala,59.34489038,26.67509209,34240,,Rägavere vald,,6581569.5,652171.37,
34242,5990018-1,Rakvere,59.35764054,26.36336128,34242,Rakvere,Rakvere linn,,6582323.0,634396.5,
34243,5990006-1,Kadrina,59.33825548,26.14704677,34243,Kadrina,Kadrina alevik,,6579751.0,622168.93,
34245,5990010-1,Lehtse,59.25417562,25.8231013,34245,Lehtse,Lehtse alevik,,6569842.5,603995.62,
34248,21313-1,Nelijärve,59.27051052,25.65249946,34248,,Aegviidu vald,,6571409.5,594221.18,Harju4
34249,23204-1,Männiku,59.33866546,24.7014443,34249,,Saku vald,,6578050.0,539918.43,Harju2
34250,23375-1,Urda,59.34357615,24.61258029,34250,Urda,Saue vald,,6578547.5,534856.43,Harju2
93450,11313-1,Kitseküla,59.41995035,24.74018179,93450,Kitseküla,Kesklinn,,6587128.5,542022.93,Harju1
93451,23374-1,Urda,59.34349332,24.61205595,93451,Urda,Saue vald,,6578538.0,534826.68,Harju2
93453,23372-1,Padula,59.33749641,24.59126169,93453,,Saue vald,,6577859.35,533649.39,Harju2
93454,23373-1,Padula,59.33787529,24.59284109,93454,,Saue vald,,6577902.35,533738.9,Harju2
94013,21780-1,Kloogaranna,59.34378717,24.24594551,94013,Klooga-rand; Kloogaranna,Keila vald,,6578437.5,513994.62,Harju3
94014,21793-1,Kloogaranna,59.34349563,24.24583797,94014,Klooga-rand; Kloogaranna,Keila vald,,6578405.0,513988.62,Harju3
94017,22753-1,Riisipere,59.11964333,24.31224417,94017,Riisipere,Nissi vald,,6553484.5,517883.31,Harju4
34251,07512-1,Tallinn-Väike,59.41311625,24.74622519,34251,,Kesklinn,,6586371.0,542374.5,Harju1
102908,7090015-1,Lohu,59.115339399999996,24.78714644,102908,,Kohila vald,,6553228.0,545087.37,Harju4
103079,7090016-1,Lohu,59.11542462,24.78715712,103079,,Kohila vald,,6553237.5,545087.87,Harju4
34008,4990013-1,Tabivere,58.55188319,26.59171043,34008,,Tabivere alevik,,6493117.0,650842.75,
34017,4990015-1,Vägeva,58.90869971,26.27894905,34017,,Jõgeva vald,,6532176.5,631296.87,
34018,4990011-1,Pedja,58.82688604,26.34557813,34018,,Jõgeva vald,,6523201.5,635452.62,
34019,4990003-1,Kaarepere,58.66256219,26.51963734,34019,,Jõgeva vald,,6505276.0,646187.0,
34043,4990001-1,Jõgeva,58.74841078,26.39934123,34043,Jõgeva,Jõgeva linn,,6514576.0,638868.62,1
34216,4990014-1,Tabivere,58.55172407,26.59158156,34216,,Tabivere alevik,,6493099.0,650835.93,
34219,4990004-1,Kaarepere,58.66258746,26.51972322,34219,,Jõgeva vald,,6505279.0,646191.87,
34221,4990002-1,Jõgeva,58.747890000000005,26.39956789,34221,Jõgeva,Jõgeva linn,,6514518.5,638883.81,1
34222,4990012-1,Pedja,58.82687596,26.34539122,34222,,Jõgeva vald,,6523200.0,635441.87,
34223,4990016-1,Vägeva,58.90872035,26.27905242,34223,,Jõgeva vald,,6532179.0,631302.75,
123509,6790012-1,Pulli,58.423351000000004,24.66618192,123509,,Sauga vald,,6476080.0,538924.31,PärnuMVLL
123510,6790013-1,Pulli,58.42333221,24.66634095,123510,,Sauga vald,,6476078.0,538933.62,PärnuMVLL
34142,5190008-1,Taikse,58.77251252,25.47125538,34142,,Türi vald,,6515710.0,585105.5,tartu1
130316,6790016-1,Pärnu,58.37252146,24.55551786,130316,Pärnu,Pärnu linn,,6470360.0,532505.37,
34114,5190007-1,Taikse,58.772563500000004,25.4715104,34114,,Türi vald,,6515716.0,585120.12,tartu1
139104,05907-1,Valdeku,59.37559741,24.72042821,139104,,Nõmme,,6582175.5,540954.56,
139105,05908-1,Valdeku,59.37557067,24.72039356,139105,,Nõmme,,6582172.5,540952.62,Harju1
10840,37204-1,Lahinguvälja,59.31434038,25.41092381,10840,,Anija vald,,6575976.5,580346.68,Harju4
10841,37203-1,Lahinguvälja,59.31447368,25.41021689,10841,,Anija vald,,6575990.5,580306.12,Harju4
